[{"id":"64774401","lat":40.77093,"lon":-73.959305,"addr":"201 East   74 Street","boro":"Manhattan","desc":"Suspended (Hanging) Scaffolds - No Pmt/Lic/Dangerous/Accident","created":"2025-04-27","closed":"2025-04-28","status":"Closed","loc_count":1},{"id":"64772348","lat":40.771377,"lon":-73.959402,"addr":"1299 3 Avenue","boro":"Manhattan","desc":"Suspended (Hanging) Scaffolds - No Pmt/Lic/Dangerous/Accident","created":"2025-04-27","closed":"2025-04-28","status":"Closed","loc_count":1},{"id":"64780729","lat":40.804807,"lon":-73.948314,"addr":"103 West  120 Street","boro":"Manhattan","desc":"Suspended (Hanging) Scaffolds - No Pmt/Lic/Dangerous/Accident","created":"2025-04-28","closed":"2025-04-29","status":"Closed","loc_count":1},{"id":"64801869","lat":40.83776,"lon":-73.859758,"addr":"60 Metropolitan Oval","boro":"Bronx","desc":"Suspended (Hanging) Scaffolds - No Pmt/Lic/Dangerous/Accident","created":"2025-04-30","closed":"2025-05-12","status":"Closed","loc_count":1},{"id":"64811338","lat":40.716336,"lon":-74.004477,"addr":"336 Broadway","boro":"Manhattan","desc":"Suspended (Hanging) Scaffolds - No Pmt/Lic/Dangerous/Accident","created":"2025-05-01","closed":"2025-05-02","status":"Closed","loc_count":1},{"id":"64823041","lat":40.707983,"lon":-74.006164,"addr":"100 John Street","boro":"Manhattan","desc":"Suspended (Hanging) Scaffolds - No Pmt/Lic/Dangerous/Accident","created":"2025-05-01","closed":"2025-05-02","status":"Closed","loc_count":1},{"id":"64820514","lat":40.703513,"lon":-73.945118,"addr":"29 Moore Street","boro":"Brooklyn","desc":"Suspended (Hanging) Scaffolds - No Pmt/Lic/Dangerous/Accident","created":"2025-05-01","closed":"2025-05-02","status":"Closed","loc_count":1},{"id":"64837132","lat":40.764534,"lon":-73.963969,"addr":"200 East   64 Street","boro":"Manhattan","desc":"Suspended (Hanging) Scaffolds - No Pmt/Lic/Dangerous/Accident","created":"2025-05-03","closed":"2025-05-05","status":"Closed","loc_count":1},{"id":"64961100","lat":40.824151,"lon":-73.875786,"addr":"1569 Bruckner Boulevard","boro":"Bronx","desc":"Suspended (Hanging) Scaffolds - No Pmt/Lic/Dangerous/Accident","created":"2025-05-15","closed":"2025-05-16","status":"Closed","loc_count":1},{"id":"64971401","lat":40.711225,"lon":-73.956528,"addr":"286 South    2 Street","boro":"Brooklyn","desc":"Suspended (Hanging) Scaffolds - No Pmt/Lic/Dangerous/Accident","created":"2025-05-16","closed":"2025-05-19","status":"Closed","loc_count":1},{"id":"65015085","lat":40.67376,"lon":-73.940084,"addr":"1104 Prospect Place","boro":"Brooklyn","desc":"Suspended (Hanging) Scaffolds - No Pmt/Lic/Dangerous/Accident","created":"2025-05-20","closed":"2025-05-22","status":"Closed","loc_count":1},{"id":"65046049","lat":40.796269,"lon":-73.945944,"addr":"88 East  111 Street","boro":"Manhattan","desc":"Suspended (Hanging) Scaffolds - No Pmt/Lic/Dangerous/Accident","created":"2025-05-24","closed":"2025-05-27","status":"Closed","loc_count":1},{"id":"65067528","lat":40.840329,"lon":-73.889728,"addr":"1801 Marmion Avenue","boro":"Bronx","desc":"Suspended (Hanging) Scaffolds - No Pmt/Lic/Dangerous/Accident","created":"2025-05-26","closed":"2025-05-27","status":"Closed","loc_count":1},{"id":"65077484","lat":40.804261,"lon":-73.955015,"addr":"262 West  116 Street","boro":"Manhattan","desc":"Suspended (Hanging) Scaffolds - No Pmt/Lic/Dangerous/Accident","created":"2025-05-27","closed":"2025-05-28","status":"Closed","loc_count":1},{"id":"65114977","lat":40.700861,"lon":-73.920264,"addr":"232 Stanhope Street","boro":"Brooklyn","desc":"Suspended (Hanging) Scaffolds - No Pmt/Lic/Dangerous/Accident","created":"2025-05-31","closed":"2025-06-02","status":"Closed","loc_count":1},{"id":"65111948","lat":40.614925,"lon":-73.99692,"addr":"1728 74 Street","boro":"Brooklyn","desc":"Suspended (Hanging) Scaffolds - No Pmt/Lic/Dangerous/Accident","created":"2025-05-30","closed":"2025-05-30","status":"Closed","loc_count":1},{"id":"65125792","lat":40.667052,"lon":-73.981944,"addr":"444 9 Street","boro":"Brooklyn","desc":"Suspended (Hanging) Scaffolds - No Pmt/Lic/Dangerous/Accident","created":"2025-06-01","closed":"2025-06-02","status":"Closed","loc_count":1},{"id":"65190992","lat":40.745721,"lon":-74.003511,"addr":"440 West   21 Street","boro":"Manhattan","desc":"Suspended (Hanging) Scaffolds - No Pmt/Lic/Dangerous/Accident","created":"2025-06-07","closed":"2025-06-09","status":"Closed","loc_count":2},{"id":"65193485","lat":40.573494,"lon":-73.992837,"addr":"2970 West   27 Street","boro":"Brooklyn","desc":"Suspended (Hanging) Scaffolds - No Pmt/Lic/Dangerous/Accident","created":"2025-06-07","closed":"2025-06-09","status":"Closed","loc_count":1},{"id":"65230160","lat":40.857534,"lon":-73.885893,"addr":"2483 Arthur Avenue","boro":"Bronx","desc":"Suspended (Hanging) Scaffolds - No Pmt/Lic/Dangerous/Accident","created":"2025-06-11","closed":"2025-06-12","status":"Closed","loc_count":1},{"id":"65255703","lat":40.576389,"lon":-73.984715,"addr":"2905 West   17 Street","boro":"Brooklyn","desc":"Suspended (Hanging) Scaffolds - No Pmt/Lic/Dangerous/Accident","created":"2025-06-13","closed":"2025-06-25","status":"Closed","loc_count":2},{"id":"65262003","lat":40.735686,"lon":-73.999,"addr":"116 West   11 Street","boro":"Manhattan","desc":"Suspended (Hanging) Scaffolds - No Pmt/Lic/Dangerous/Accident","created":"2025-06-14","closed":"2025-06-15","status":"Closed","loc_count":1},{"id":"65279202","lat":40.621136,"lon":-74.075102,"addr":"75 Vanderbilt Avenue","boro":"Staten Island","desc":"Suspended (Hanging) Scaffolds - No Pmt/Lic/Dangerous/Accident","created":"2025-06-16","closed":"2025-06-20","status":"Closed","loc_count":1},{"id":"65281432","lat":40.766492,"lon":-73.952871,"addr":"515 East   72 Street","boro":"Manhattan","desc":"Suspended (Hanging) Scaffolds - No Pmt/Lic/Dangerous/Accident","created":"2025-06-16","closed":"2025-06-17","status":"Closed","loc_count":1},{"id":"65298270","lat":40.675337,"lon":-73.881543,"addr":"777 Glenmore Avenue","boro":"Brooklyn","desc":"Suspended (Hanging) Scaffolds - No Pmt/Lic/Dangerous/Accident","created":"2025-06-18","closed":"2025-06-19","status":"Closed","loc_count":1},{"id":"65308363","lat":40.87512,"lon":-73.886307,"addr":"3131 Grand Concourse","boro":"Bronx","desc":"Suspended (Hanging) Scaffolds - No Pmt/Lic/Dangerous/Accident","created":"2025-06-19","closed":"2025-06-20","status":"Closed","loc_count":1},{"id":"65309397","lat":40.846727,"lon":-73.91556,"addr":"1630 Grand Avenue","boro":"Bronx","desc":"Suspended (Hanging) Scaffolds - No Pmt/Lic/Dangerous/Accident","created":"2025-06-19","closed":"2025-06-20","status":"Closed","loc_count":1},{"id":"65321562","lat":40.730844,"lon":-73.987455,"addr":"229 East   11 Street","boro":"Manhattan","desc":"Suspended (Hanging) Scaffolds - No Pmt/Lic/Dangerous/Accident","created":"2025-06-20","closed":"2025-06-23","status":"Closed","loc_count":1},{"id":"65353822","lat":40.58587,"lon":-73.821955,"addr":"320 Beach  100 Street","boro":"Queens","desc":"Suspended (Hanging) Scaffolds - No Pmt/Lic/Dangerous/Accident","created":"2025-06-23","closed":"2025-06-24","status":"Closed","loc_count":2},{"id":"65361641","lat":40.676997,"lon":-73.962639,"addr":"609 Grand Avenue","boro":"Brooklyn","desc":"Suspended (Hanging) Scaffolds - No Pmt/Lic/Dangerous/Accident","created":"2025-06-24","closed":"2025-06-26","status":"Closed","loc_count":1},{"id":"65353823","lat":40.58587,"lon":-73.821955,"addr":"320 Beach  100 Street","boro":"Queens","desc":"Suspended (Hanging) Scaffolds - No Pmt/Lic/Dangerous/Accident","created":"2025-06-23","closed":"2025-06-24","status":"Closed","loc_count":2},{"id":"65361650","lat":40.586193,"lon":-73.821068,"addr":"319 Beach   98 Street","boro":"Queens","desc":"Suspended (Hanging) Scaffolds - No Pmt/Lic/Dangerous/Accident","created":"2025-06-24","closed":"2025-06-24","status":"Closed","loc_count":5},{"id":"65393719","lat":40.713441,"lon":-73.958701,"addr":"258 Grand Street","boro":"Brooklyn","desc":"Suspended (Hanging) Scaffolds - No Pmt/Lic/Dangerous/Accident","created":"2025-06-27","closed":"2025-06-27","status":"Closed","loc_count":1},{"id":"65397560","lat":40.586193,"lon":-73.821068,"addr":"319 Beach   98 Street","boro":"Queens","desc":"Suspended (Hanging) Scaffolds - No Pmt/Lic/Dangerous/Accident","created":"2025-06-27","closed":"2025-06-27","status":"Closed","loc_count":5},{"id":"65425517","lat":40.576389,"lon":-73.984715,"addr":"2905 West   17 Street","boro":"Brooklyn","desc":"Suspended (Hanging) Scaffolds - No Pmt/Lic/Dangerous/Accident","created":"2025-06-30","closed":"2025-07-01","status":"Closed","loc_count":2},{"id":"65426752","lat":40.585851,"lon":-73.820378,"addr":"320 Beach   98 Street","boro":"Queens","desc":"Suspended (Hanging) Scaffolds - No Pmt/Lic/Dangerous/Accident","created":"2025-06-30","closed":"2025-07-01","status":"Closed","loc_count":1},{"id":"65430351","lat":40.789074,"lon":-73.954476,"addr":"5 East   98 Street","boro":"Manhattan","desc":"Suspended (Hanging) Scaffolds - No Pmt/Lic/Dangerous/Accident","created":"2025-07-01","closed":"2025-07-02","status":"Closed","loc_count":1},{"id":"65442261","lat":40.859569,"lon":-73.868544,"addr":"2280 Olinville Avenue","boro":"Bronx","desc":"Suspended (Hanging) Scaffolds - No Pmt/Lic/Dangerous/Accident","created":"2025-07-02","closed":"2025-07-03","status":"Closed","loc_count":1},{"id":"65503243","lat":40.694239,"lon":-73.922079,"addr":"58 Bleecker Street","boro":"Brooklyn","desc":"Suspended (Hanging) Scaffolds - No Pmt/Lic/Dangerous/Accident","created":"2025-07-08","closed":"2025-07-08","status":"Closed","loc_count":1},{"id":"65499741","lat":40.676847,"lon":-73.964918,"addr":"347 Prospect Place","boro":"Brooklyn","desc":"Suspended (Hanging) Scaffolds - No Pmt/Lic/Dangerous/Accident","created":"2025-07-07","closed":"2025-07-08","status":"Closed","loc_count":1},{"id":"65512506","lat":40.586193,"lon":-73.821068,"addr":"319 Beach   98 Street","boro":"Queens","desc":"Suspended (Hanging) Scaffolds - No Pmt/Lic/Dangerous/Accident","created":"2025-07-09","closed":"2025-07-10","status":"Closed","loc_count":5},{"id":"65553581","lat":40.871185,"lon":-73.850482,"addr":"1260 Burke Avenue","boro":"Bronx","desc":"Suspended (Hanging) Scaffolds - No Pmt/Lic/Dangerous/Accident","created":"2025-07-14","closed":"2025-07-15","status":"Closed","loc_count":1},{"id":"65554756","lat":40.630096,"lon":-73.944757,"addr":"1655 Flatbush Avenue","boro":"Brooklyn","desc":"Suspended (Hanging) Scaffolds - No Pmt/Lic/Dangerous/Accident","created":"2025-07-14","closed":"2025-07-14","status":"Closed","loc_count":1},{"id":"65574906","lat":40.770011,"lon":-73.954377,"addr":"1450 1 Avenue","boro":"Manhattan","desc":"Suspended (Hanging) Scaffolds - No Pmt/Lic/Dangerous/Accident","created":"2025-07-15","closed":"2025-07-17","status":"Closed","loc_count":1},{"id":"65588678","lat":40.832973,"lon":-73.876391,"addr":"1349 Stratford Avenue","boro":"Bronx","desc":"Suspended (Hanging) Scaffolds - No Pmt/Lic/Dangerous/Accident","created":"2025-07-17","closed":"2025-07-17","status":"Closed","loc_count":2},{"id":"65582123","lat":40.772172,"lon":-73.928746,"addr":"14-35 Astoria Boulevard","boro":"Queens","desc":"Suspended (Hanging) Scaffolds - No Pmt/Lic/Dangerous/Accident","created":"2025-07-17","closed":"2025-07-18","status":"Closed","loc_count":1},{"id":"65580942","lat":40.738412,"lon":-73.846767,"addr":"61-20 Grand Central Pkw","boro":"Queens","desc":"Suspended (Hanging) Scaffolds - No Pmt/Lic/Dangerous/Accident","created":"2025-07-16","closed":"2025-07-17","status":"Closed","loc_count":1},{"id":"65688025","lat":40.788717,"lon":-73.973439,"addr":"188 West   88 Street","boro":"Manhattan","desc":"Suspended (Hanging) Scaffolds - No Pmt/Lic/Dangerous/Accident","created":"2025-07-28","closed":"2025-07-28","status":"Closed","loc_count":1},{"id":"65700923","lat":40.710105,"lon":-74.007495,"addr":"129 Fulton Street","boro":"Manhattan","desc":"Suspended (Hanging) Scaffolds - No Pmt/Lic/Dangerous/Accident","created":"2025-07-29","closed":"2025-07-29","status":"Closed","loc_count":1},{"id":"65708331","lat":40.715144,"lon":-73.795284,"addr":"84-50 169 Street","boro":"Queens","desc":"Suspended (Hanging) Scaffolds - No Pmt/Lic/Dangerous/Accident","created":"2025-07-30","closed":"2025-07-30","status":"Closed","loc_count":1},{"id":"65711949","lat":40.766633,"lon":-73.970838,"addr":"3 East   63 Street","boro":"Manhattan","desc":"Suspended (Hanging) Scaffolds - No Pmt/Lic/Dangerous/Accident","created":"2025-07-30","closed":"2025-07-30","status":"Closed","loc_count":1},{"id":"65721051","lat":40.786043,"lon":-73.971097,"addr":"51 West   86 Street","boro":"Manhattan","desc":"Suspended (Hanging) Scaffolds - No Pmt/Lic/Dangerous/Accident","created":"2025-07-31","closed":"2025-08-04","status":"Closed","loc_count":1},{"id":"65730369","lat":40.804096,"lon":-73.963052,"addr":"1050 Amsterdam Avenue","boro":"Manhattan","desc":"Suspended (Hanging) Scaffolds - No Pmt/Lic/Dangerous/Accident","created":"2025-08-01","closed":"2025-08-04","status":"Closed","loc_count":2},{"id":"65747709","lat":40.589011,"lon":-73.949453,"addr":"2970 Ocean Avenue","boro":"Brooklyn","desc":"Suspended (Hanging) Scaffolds - No Pmt/Lic/Dangerous/Accident","created":"2025-08-03","closed":"2025-08-04","status":"Closed","loc_count":1},{"id":"65775949","lat":40.584298,"lon":-73.95629,"addr":"2750 Homecrest Avenue","boro":"Brooklyn","desc":"Suspended (Hanging) Scaffolds - No Pmt/Lic/Dangerous/Accident","created":"2025-08-06","closed":"2025-08-06","status":"Closed","loc_count":1},{"id":"65786050","lat":40.68378,"lon":-73.989663,"addr":"215 Hoyt Street","boro":"Brooklyn","desc":"Suspended (Hanging) Scaffolds - No Pmt/Lic/Dangerous/Accident","created":"2025-08-07","closed":"2025-08-07","status":"Closed","loc_count":1},{"id":"65791479","lat":40.804096,"lon":-73.963052,"addr":"1050 Amsterdam Avenue","boro":"Manhattan","desc":"Suspended (Hanging) Scaffolds - No Pmt/Lic/Dangerous/Accident","created":"2025-08-07","closed":"2025-08-08","status":"Closed","loc_count":2},{"id":"65799019","lat":40.79217,"lon":-73.948161,"addr":"107 East  105 Street","boro":"Manhattan","desc":"Suspended (Hanging) Scaffolds - No Pmt/Lic/Dangerous/Accident","created":"2025-08-08","closed":"2025-08-08","status":"Closed","loc_count":1},{"id":"65817845","lat":40.633328,"lon":-74.026175,"addr":"326 72 Street","boro":"Brooklyn","desc":"Suspended (Hanging) Scaffolds - No Pmt/Lic/Dangerous/Accident","created":"2025-08-10","closed":"2025-09-25","status":"Closed","loc_count":1},{"id":"65823389","lat":40.834619,"lon":-73.947662,"addr":"775 Riverside Drive","boro":"Manhattan","desc":"Suspended (Hanging) Scaffolds - No Pmt/Lic/Dangerous/Accident","created":"2025-08-11","closed":"2025-08-13","status":"Closed","loc_count":1},{"id":"65838701","lat":40.827672,"lon":-73.87024,"addr":"1113 Croes Avenue","boro":"Bronx","desc":"Suspended (Hanging) Scaffolds - No Pmt/Lic/Dangerous/Accident","created":"2025-08-13","closed":"2025-08-14","status":"Closed","loc_count":1},{"id":"65847591","lat":40.834647,"lon":-73.927472,"addr":"1075 Nelson Avenue","boro":"Bronx","desc":"Suspended (Hanging) Scaffolds - No Pmt/Lic/Dangerous/Accident","created":"2025-08-14","closed":"2025-08-15","status":"Closed","loc_count":2},{"id":"65865317","lat":40.745721,"lon":-74.003511,"addr":"440 West   21 Street","boro":"Manhattan","desc":"Suspended (Hanging) Scaffolds - No Pmt/Lic/Dangerous/Accident","created":"2025-08-16","closed":"2025-08-18","status":"Closed","loc_count":2},{"id":"65944320","lat":40.586193,"lon":-73.821068,"addr":"319 Beach   98 Street","boro":"Queens","desc":"Suspended (Hanging) Scaffolds - No Pmt/Lic/Dangerous/Accident","created":"2025-08-25","closed":"2025-08-26","status":"Closed","loc_count":5},{"id":"65949006","lat":40.708611,"lon":-73.828852,"addr":"83-55 Austin Street","boro":"Queens","desc":"Suspended (Hanging) Scaffolds - No Pmt/Lic/Dangerous/Accident","created":"2025-08-25","closed":"2025-08-26","status":"Closed","loc_count":1},{"id":"65969775","lat":40.86549,"lon":-73.864045,"addr":"784 Allerton Avenue","boro":"Bronx","desc":"Suspended (Hanging) Scaffolds - No Pmt/Lic/Dangerous/Accident","created":"2025-08-27","closed":"2025-08-28","status":"Closed","loc_count":1},{"id":"65971040","lat":40.745666,"lon":-74.003338,"addr":"433 West   21 Street","boro":"Manhattan","desc":"Suspended (Hanging) Scaffolds - No Pmt/Lic/Dangerous/Accident","created":"2025-08-27","closed":"2025-08-27","status":"Closed","loc_count":1},{"id":"65978613","lat":40.619689,"lon":-73.97101,"addr":"1275 East    5 Street","boro":"Brooklyn","desc":"Suspended (Hanging) Scaffolds - No Pmt/Lic/Dangerous/Accident","created":"2025-08-28","closed":"2025-08-30","status":"Closed","loc_count":1},{"id":"66013965","lat":40.834647,"lon":-73.927472,"addr":"1075 Nelson Avenue","boro":"Bronx","desc":"Suspended (Hanging) Scaffolds - No Pmt/Lic/Dangerous/Accident","created":"2025-09-01","closed":"2025-09-02","status":"Closed","loc_count":2},{"id":"66095231","lat":40.847555,"lon":-73.922184,"addr":"1473 Popham Avenue","boro":"Bronx","desc":"Suspended (Hanging) Scaffolds - No Pmt/Lic/Dangerous/Accident","created":"2025-09-09","closed":"2025-09-10","status":"Closed","loc_count":1},{"id":"66181101","lat":40.665211,"lon":-73.947262,"addr":"521 Montgomery Street","boro":"Brooklyn","desc":"Suspended (Hanging) Scaffolds - No Pmt/Lic/Dangerous/Accident","created":"2025-09-17","closed":"2025-09-18","status":"Closed","loc_count":1},{"id":"66177253","lat":40.757808,"lon":-73.861717,"addr":"107-09 Northern Boulevard","boro":"Queens","desc":"Suspended (Hanging) Scaffolds - No Pmt/Lic/Dangerous/Accident","created":"2025-09-16","closed":"2025-09-17","status":"Closed","loc_count":1},{"id":"66231870","lat":40.767753,"lon":-73.961892,"addr":"200 East   69 Street","boro":"Manhattan","desc":"Suspended (Hanging) Scaffolds - No Pmt/Lic/Dangerous/Accident","created":"2025-09-21","closed":"2025-09-22","status":"Closed","loc_count":1},{"id":"66234275","lat":40.843444,"lon":-73.911863,"addr":"1645 Grand Concourse","boro":"Bronx","desc":"Suspended (Hanging) Scaffolds - No Pmt/Lic/Dangerous/Accident","created":"2025-09-22","closed":"2025-09-22","status":"Closed","loc_count":1},{"id":"66262278","lat":40.670981,"lon":-73.98655,"addr":"286 7 Street","boro":"Brooklyn","desc":"Suspended (Hanging) Scaffolds - No Pmt/Lic/Dangerous/Accident","created":"2025-09-24","closed":"2025-09-24","status":"Closed","loc_count":1},{"id":"66270939","lat":40.623102,"lon":-73.946167,"addr":"2525 Nostrand Avenue","boro":"Brooklyn","desc":"Suspended (Hanging) Scaffolds - No Pmt/Lic/Dangerous/Accident","created":"2025-09-25","closed":"2025-09-26","status":"Closed","loc_count":1},{"id":"66281837","lat":40.743969,"lon":-73.981483,"addr":"161 Lexington Avenue","boro":"Manhattan","desc":"Suspended (Hanging) Scaffolds - No Pmt/Lic/Dangerous/Accident","created":"2025-09-26","closed":"2025-09-26","status":"Closed","loc_count":1},{"id":"66316802","lat":40.786246,"lon":-73.968659,"addr":"271 Central Park West","boro":"Manhattan","desc":"Suspended (Hanging) Scaffolds - No Pmt/Lic/Dangerous/Accident","created":"2025-09-29","closed":"2025-09-29","status":"Closed","loc_count":1},{"id":"66342140","lat":40.689398,"lon":-73.985162,"addr":"224 Livingston Street","boro":"Brooklyn","desc":"Suspended (Hanging) Scaffolds - No Pmt/Lic/Dangerous/Accident","created":"2025-10-01","closed":"2026-01-21","status":"Closed","loc_count":1},{"id":"66388322","lat":40.768799,"lon":-73.992487,"addr":"790 11 Avenue","boro":"Manhattan","desc":"Suspended (Hanging) Scaffolds - No Pmt/Lic/Dangerous/Accident","created":"2025-10-06","closed":"2025-10-06","status":"Closed","loc_count":1},{"id":"66406213","lat":40.806106,"lon":-73.944592,"addr":"35 Mount Morris Park West","boro":"Manhattan","desc":"Suspended (Hanging) Scaffolds - No Pmt/Lic/Dangerous/Accident","created":"2025-10-07","closed":"2025-10-07","status":"Closed","loc_count":1},{"id":"66423292","lat":40.77321,"lon":-73.956845,"addr":"239 East   78 Street","boro":"Manhattan","desc":"Suspended (Hanging) Scaffolds - No Pmt/Lic/Dangerous/Accident","created":"2025-10-09","closed":"2025-10-09","status":"Closed","loc_count":1},{"id":"66444501","lat":40.750564,"lon":-73.945718,"addr":"43-01 21 Street","boro":"Queens","desc":"Suspended (Hanging) Scaffolds - No Pmt/Lic/Dangerous/Accident","created":"2025-10-11","closed":"2025-10-13","status":"Closed","loc_count":1},{"id":"66456002","lat":40.67066,"lon":-73.948678,"addr":"843 Lincoln Place","boro":"Brooklyn","desc":"Suspended (Hanging) Scaffolds - No Pmt/Lic/Dangerous/Accident","created":"2025-10-12","closed":"2025-12-02","status":"Closed","loc_count":1},{"id":"66584197","lat":40.735283,"lon":-73.996052,"addr":"50 West   12 Street","boro":"Manhattan","desc":"Suspended (Hanging) Scaffolds - No Pmt/Lic/Dangerous/Accident","created":"2025-10-21","closed":"2025-10-21","status":"Closed","loc_count":1},{"id":"66587531","lat":40.737654,"lon":-74.002201,"addr":"235 West   12 Street","boro":"Manhattan","desc":"Suspended (Hanging) Scaffolds - No Pmt/Lic/Dangerous/Accident","created":"2025-10-22","closed":"2025-10-23","status":"Closed","loc_count":1},{"id":"66668275","lat":40.737575,"lon":-74.003219,"addr":"268 West   12 Street","boro":"Manhattan","desc":"Suspended (Hanging) Scaffolds - No Pmt/Lic/Dangerous/Accident","created":"2025-10-29","closed":"2025-11-03","status":"Closed","loc_count":1},{"id":"66673517","lat":40.827206,"lon":-73.948239,"addr":"561 West  147 Street","boro":"Manhattan","desc":"Suspended (Hanging) Scaffolds - No Pmt/Lic/Dangerous/Accident","created":"2025-10-31","closed":"2025-11-03","status":"Closed","loc_count":1},{"id":"66668274","lat":40.845865,"lon":-73.91923,"addr":"1551 Shakespeare Avenue","boro":"Bronx","desc":"Suspended (Hanging) Scaffolds - No Pmt/Lic/Dangerous/Accident","created":"2025-10-30","closed":"2025-10-30","status":"Closed","loc_count":1},{"id":"66681443","lat":40.808899,"lon":-73.942173,"addr":"39 West  128 Street","boro":"Manhattan","desc":"Suspended (Hanging) Scaffolds - No Pmt/Lic/Dangerous/Accident","created":"2025-10-31","closed":"2025-11-03","status":"Closed","loc_count":1},{"id":"66700747","lat":40.861611,"lon":-73.926911,"addr":"17 Arden Street","boro":"Manhattan","desc":"Suspended (Hanging) Scaffolds - No Pmt/Lic/Dangerous/Accident","created":"2025-11-02","closed":"2025-11-03","status":"Closed","loc_count":1},{"id":"66784910","lat":40.575682,"lon":-73.955388,"addr":"1311 Brightwater Avenue","boro":"Brooklyn","desc":"Suspended (Hanging) Scaffolds - No Pmt/Lic/Dangerous/Accident","created":"2025-11-09","closed":"2025-11-10","status":"Closed","loc_count":1},{"id":"66839260","lat":40.603569,"lon":-74.076526,"addr":"159 Pouch Terrace","boro":"Staten Island","desc":"Suspended (Hanging) Scaffolds - No Pmt/Lic/Dangerous/Accident","created":"2025-11-14","closed":"2026-01-09","status":"Closed","loc_count":1},{"id":"66848972","lat":40.832613,"lon":-73.904676,"addr":"530 East  169 Street","boro":"Bronx","desc":"Suspended (Hanging) Scaffolds - No Pmt/Lic/Dangerous/Accident","created":"2025-11-15","closed":"2025-11-16","status":"Closed","loc_count":1},{"id":"66870914","lat":40.732291,"lon":-73.810097,"addr":"158-11 Jewel Avenue","boro":"Queens","desc":"Suspended (Hanging) Scaffolds - No Pmt/Lic/Dangerous/Accident","created":"2025-11-17","closed":"2025-11-17","status":"Closed","loc_count":1},{"id":"66942490","lat":40.718943,"lon":-73.962681,"addr":"151 Kent Avenue","boro":"Brooklyn","desc":"Suspended (Hanging) Scaffolds - No Pmt/Lic/Dangerous/Accident","created":"2025-11-24","closed":"2025-11-25","status":"Closed","loc_count":1},{"id":"67016592","lat":40.828409,"lon":-73.8552,"addr":"2039 Blackrock Avenue","boro":"Bronx","desc":"Suspended (Hanging) Scaffolds - No Pmt/Lic/Dangerous/Accident","created":"2025-12-01","closed":"2025-12-01","status":"Closed","loc_count":1},{"id":"67072116","lat":40.713566,"lon":-73.956317,"addr":"94 Havemeyer Street","boro":"Brooklyn","desc":"Suspended (Hanging) Scaffolds - No Pmt/Lic/Dangerous/Accident","created":"2025-12-04","closed":"2025-12-05","status":"Closed","loc_count":1},{"id":"67114719","lat":40.840415,"lon":-73.887588,"addr":"1827 Waterloo Place","boro":"Bronx","desc":"Suspended (Hanging) Scaffolds - No Pmt/Lic/Dangerous/Accident","created":"2025-12-09","closed":"2025-12-10","status":"Closed","loc_count":1},{"id":"67135174","lat":40.705065,"lon":-74.010939,"addr":"44 Beaver Street","boro":"Manhattan","desc":"Suspended (Hanging) Scaffolds - No Pmt/Lic/Dangerous/Accident","created":"2025-12-10","closed":"2025-12-10","status":"Closed","loc_count":1},{"id":"65165469","lat":40.749576,"lon":-73.981337,"addr":"19 East   37 Street","boro":"Manhattan","desc":"Suspended (Hanging) Scaffolds - No Pmt/Lic/Dangerous/Accident","created":"2025-06-04","closed":"2025-06-05","status":"Closed","loc_count":1},{"id":"67289739","lat":40.613581,"lon":-73.982657,"addr":"2176 66 Street","boro":"Brooklyn","desc":"Suspended (Hanging) Scaffolds - No Pmt/Lic/Dangerous/Accident","created":"2025-12-24","closed":"2025-12-24","status":"Closed","loc_count":1},{"id":"67323326","lat":40.757989,"lon":-73.969174,"addr":"885 3 Avenue","boro":"Manhattan","desc":"Suspended (Hanging) Scaffolds - No Pmt/Lic/Dangerous/Accident","created":"2025-12-29","closed":"2025-12-30","status":"Closed","loc_count":1},{"id":"67324552","lat":40.774533,"lon":-73.955793,"addr":"242 East   80 Street","boro":"Manhattan","desc":"Suspended (Hanging) Scaffolds - No Pmt/Lic/Dangerous/Accident","created":"2025-12-29","closed":"2025-12-30","status":"Closed","loc_count":1},{"id":"67341553","lat":40.736157,"lon":-73.95903,"addr":"2 Blue Slip","boro":"Brooklyn","desc":"Suspended (Hanging) Scaffolds - No Pmt/Lic/Dangerous/Accident","created":"2025-12-30","closed":"2025-12-31","status":"Closed","loc_count":1},{"id":"67386250","lat":40.797834,"lon":-73.951465,"addr":"55 West  110 Street","boro":"Manhattan","desc":"Suspended (Hanging) Scaffolds - No Pmt/Lic/Dangerous/Accident","created":"2026-01-04","closed":"2026-01-05","status":"Closed","loc_count":1},{"id":"67396531","lat":40.70773,"lon":-74.013706,"addr":"88 Greenwich Street","boro":"Manhattan","desc":"Suspended (Hanging) Scaffolds - No Pmt/Lic/Dangerous/Accident","created":"2026-01-05","closed":"2026-01-05","status":"Closed","loc_count":1},{"id":"67475325","lat":40.884277,"lon":-73.878885,"addr":"3572 Dekalb Avenue","boro":"Bronx","desc":"Suspended (Hanging) Scaffolds - No Pmt/Lic/Dangerous/Accident","created":"2026-01-13","closed":"2026-01-14","status":"Closed","loc_count":1},{"id":"67959506","lat":40.611229,"lon":-73.959708,"addr":"1570 East   14 Street","boro":"Brooklyn","desc":"Suspended (Hanging) Scaffolds - No Pmt/Lic/Dangerous/Accident","created":"2026-02-11","closed":"2026-02-12","status":"Closed","loc_count":1},{"id":"68045892","lat":40.75996,"lon":-73.969823,"addr":"667 Lexington Avenue","boro":"Manhattan","desc":"Suspended (Hanging) Scaffolds - No Pmt/Lic/Dangerous/Accident","created":"2026-02-19","closed":"2026-02-19","status":"Closed","loc_count":1},{"id":"68209258","lat":40.819635,"lon":-73.900149,"addr":"884 East  161 Street","boro":"Bronx","desc":"Suspended (Hanging) Scaffolds - No Pmt/Lic/Dangerous/Accident","created":"2026-03-04","closed":"2026-03-05","status":"Closed","loc_count":1},{"id":"68251686","lat":40.793814,"lon":-73.974275,"addr":"697 West End Avenue","boro":"Manhattan","desc":"Suspended (Hanging) Scaffolds - No Pmt/Lic/Dangerous/Accident","created":"2026-03-08","closed":"2026-03-09","status":"Closed","loc_count":1},{"id":"68329809","lat":40.728663,"lon":-73.858389,"addr":"97-50 Queens Boulevard","boro":"Queens","desc":"Suspended (Hanging) Scaffolds - No Pmt/Lic/Dangerous/Accident","created":"2026-03-14","closed":"2026-03-15","status":"Closed","loc_count":1},{"id":"68356719","lat":40.887994,"lon":-73.864755,"addr":"3940 Bronx Boulevard","boro":"Bronx","desc":"Suspended (Hanging) Scaffolds - No Pmt/Lic/Dangerous/Accident","created":"2026-03-17","closed":"2026-03-18","status":"Closed","loc_count":1},{"id":"68359976","lat":40.746744,"lon":-73.981576,"addr":"3 Park Avenue","boro":"Manhattan","desc":"Suspended (Hanging) Scaffolds - No Pmt/Lic/Dangerous/Accident","created":"2026-03-16","closed":"2026-03-18","status":"Closed","loc_count":1},{"id":"68364956","lat":40.586193,"lon":-73.821068,"addr":"319 Beach   98 Street","boro":"Queens","desc":"Suspended (Hanging) Scaffolds - No Pmt/Lic/Dangerous/Accident","created":"2026-03-16","closed":"2026-03-17","status":"Closed","loc_count":5},{"id":"68427915","lat":40.763887,"lon":-73.980164,"addr":"145 West   55 Street","boro":"Manhattan","desc":"Suspended (Hanging) Scaffolds - No Pmt/Lic/Dangerous/Accident","created":"2026-03-23","closed":"2026-03-24","status":"Closed","loc_count":1},{"id":"68435352","lat":40.822975,"lon":-73.82441,"addr":"2805 Schley Avenue","boro":"Bronx","desc":"Suspended (Hanging) Scaffolds - No Pmt/Lic/Dangerous/Accident","created":"2026-03-24","closed":"2026-03-25","status":"Closed","loc_count":1},{"id":"68474031","lat":40.766194,"lon":-73.962044,"addr":"235 East   67 Street","boro":"Manhattan","desc":"Suspended (Hanging) Scaffolds - No Pmt/Lic/Dangerous/Accident","created":"2026-03-27","closed":"2026-03-27","status":"Closed","loc_count":1},{"id":"68510147","lat":40.832973,"lon":-73.876391,"addr":"1349 Stratford Avenue","boro":"Bronx","desc":"Suspended (Hanging) Scaffolds - No Pmt/Lic/Dangerous/Accident","created":"2026-03-30","closed":"2026-03-30","status":"Closed","loc_count":2},{"id":"68551635","lat":40.806241,"lon":-73.952817,"addr":"188 St Nicholas Avenue","boro":"Manhattan","desc":"Suspended (Hanging) Scaffolds - No Pmt/Lic/Dangerous/Accident","created":"2026-04-03","closed":"2026-04-03","status":"Closed","loc_count":1},{"id":"68577189","lat":40.674976,"lon":-73.945628,"addr":"805 St Marks Avenue","boro":"Brooklyn","desc":"Suspended (Hanging) Scaffolds - No Pmt/Lic/Dangerous/Accident","created":"2026-04-06","closed":"2026-04-07","status":"Closed","loc_count":1},{"id":"68577190","lat":40.688298,"lon":-73.975812,"addr":"47 South Elliott Place","boro":"Brooklyn","desc":"Suspended (Hanging) Scaffolds - No Pmt/Lic/Dangerous/Accident","created":"2026-04-06","closed":"2026-04-07","status":"Closed","loc_count":1},{"id":"68580020","lat":40.769269,"lon":-73.957382,"addr":"308 East   73 Street","boro":"Manhattan","desc":"Suspended (Hanging) Scaffolds - No Pmt/Lic/Dangerous/Accident","created":"2026-04-06","closed":"2026-04-06","status":"Closed","loc_count":1},{"id":"68599659","lat":40.708082,"lon":-74.014446,"addr":"90 Washington Street","boro":"Manhattan","desc":"Suspended (Hanging) Scaffolds - No Pmt/Lic/Dangerous/Accident","created":"2026-04-08","closed":"2026-04-08","status":"Closed","loc_count":2},{"id":"68603626","lat":40.708082,"lon":-74.014446,"addr":"90 Washington Street","boro":"Manhattan","desc":"Suspended (Hanging) Scaffolds - No Pmt/Lic/Dangerous/Accident","created":"2026-04-08","closed":"2026-04-08","status":"Closed","loc_count":2},{"id":"68607590","lat":40.832955,"lon":-73.925212,"addr":"1055 Jerome Avenue","boro":"Bronx","desc":"Suspended (Hanging) Scaffolds - No Pmt/Lic/Dangerous/Accident","created":"2026-04-09","closed":"2026-04-09","status":"Closed","loc_count":1},{"id":"68612872","lat":40.87904,"lon":-73.863779,"addr":"3609 Holland Avenue","boro":"Bronx","desc":"Suspended (Hanging) Scaffolds - No Pmt/Lic/Dangerous/Accident","created":"2026-04-09","closed":"2026-04-10","status":"Closed","loc_count":1},{"id":"68649193","lat":40.880208,"lon":-73.885897,"addr":"20 West Mosholu Parkway South","boro":"Bronx","desc":"Suspended (Hanging) Scaffolds - No Pmt/Lic/Dangerous/Accident","created":"2026-04-13","closed":"2026-04-13","status":"Closed","loc_count":1},{"id":"68678562","lat":40.655232,"lon":-73.973445,"addr":"149 Prospect Park Southwest","boro":"Brooklyn","desc":"Suspended (Hanging) Scaffolds - No Pmt/Lic/Dangerous/Accident","created":"2026-04-15","closed":"2026-04-15","status":"Closed","loc_count":1},{"id":"68680078","lat":40.644282,"lon":-74.010482,"addr":"506 51 Street","boro":"Brooklyn","desc":"Suspended (Hanging) Scaffolds - No Pmt/Lic/Dangerous/Accident","created":"2026-04-15","closed":"2026-04-16","status":"Closed","loc_count":1},{"id":"68684535","lat":40.751553,"lon":-73.821927,"addr":"137-47 45 Avenue","boro":"Queens","desc":"Suspended (Hanging) Scaffolds - No Pmt/Lic/Dangerous/Accident","created":"2026-04-16","closed":"2026-04-17","status":"Closed","loc_count":1},{"id":"68739602","lat":40.755042,"lon":-73.972774,"addr":"145 East   48 Street","boro":"Manhattan","desc":"Suspended (Hanging) Scaffolds - No Pmt/Lic/Dangerous/Accident","created":"2026-04-21","closed":"2026-04-22","status":"Closed","loc_count":1},{"id":"68760619","lat":40.73259,"lon":-74.005037,"addr":"23 Grove Street","boro":"Manhattan","desc":"Suspended (Hanging) Scaffolds - No Pmt/Lic/Dangerous/Accident","created":"2026-04-23","closed":"2026-04-24","status":"Closed","loc_count":1}]